{
	"success": true,
	"count": 101,
	"data": [{
		"geometry": {
			"type": "Point",
			"coordinates": [-0.8773400000000038, 41.65606]
		},
		"rating": {
			"total_votes": 0,
			"total_values": 0,
			"value": 0
		},
		"description": "Lorem ipsum dolor sit amet consectetur adipiscing elit quisque, cras eros tempor dictumst nostra aptent conubia, a mus habitant libero augue convallis faucibus.",
		"photos": ["https://jourtrip-app.s3.amazonaws.com/static/location_placeholder.png"],
		"tags": ["Pet Store"],
		"comments": [],
		"_id": "5cf87a7cdee96f6431b61cbb",
		"name": "DendroAcua",
		"address": "Avenida Cesareo Alierta, 86",
		"cc": "ES",
		"city": "Zaragoza",
		"state": "Aragon",
		"country": "Spain",
		"formatted_address": "Avenida Cesareo Alierta, 86 (Calle de Luis Aula), 50013 Zaragoza Aragon, Spain",
		"postal_code": "50013"
	}, {
		"geometry": {
			"type": "Point",
			"coordinates": [-0.87734, 41.65606]
		},
		"rating": {
			"total_votes": 0,
			"total_values": 0,
			"value": 0
		},
		"description": "Lorem ipsum dolor sit amet consectetur adipiscing elit quisque, cras eros tempor dictumst nostra aptent conubia, a mus habitant libero augue convallis faucibus.",
		"photos": ["https://fastly.4sqi.net/img/general/537x720/I3BrbFeOKJ6KiSbGhHcCiqLdOei63SsqsYxWmkcsUNA.jpg"],
		"tags": ["Automotive Shop"],
		"comments": [],
		"_id": "5cf87a79dee96f6431b61cb6",
		"name": "Expotyre 2005, S.L.",
		"address": "Ctra. Madrid, Km. 315,8-Nave 9B",
		"cc": "ES",
		"city": "Zaragoza",
		"state": "Aragon",
		"country": "Spain",
		"formatted_address": "Ctra. Madrid, Km. 315,8-Nave 9B, 50012 Zaragoza Aragon, Spain",
		"postal_code": "50012"
	}, {
		"geometry": {
			"type": "Point",
			"coordinates": [-0.87734, 41.65606]
		},
		"rating": {
			"total_votes": 0,
			"total_values": 0,
			"value": 0
		},
		"description": "Lorem ipsum dolor sit amet consectetur adipiscing elit quisque, cras eros tempor dictumst nostra aptent conubia, a mus habitant libero augue convallis faucibus.",
		"photos": ["https://jourtrip-app.s3.amazonaws.com/static/location_placeholder.png"],
		"tags": ["College & University"],
		"comments": [],
		"_id": "5cf87a4cdee96f6431b61c78",
		"name": "Centro de Estudios Reina Victoria",
		"address": "C/ Pedro Joaquín Soler 8",
		"cc": "ES",
		"city": "Zaragoza",
		"state": "Aragon",
		"country": "Spain",
		"formatted_address": "C/ Pedro Joaquín Soler 8, 50001 Zaragoza Aragon, Spain",
		"postal_code": "50001"
	}, {
		"geometry": {
			"type": "Point",
			"coordinates": [-0.87734, 41.65606]
		},
		"rating": {
			"total_votes": 0,
			"total_values": 0,
			"value": 0
		},
		"description": "Lorem ipsum dolor sit amet consectetur adipiscing elit quisque, cras eros tempor dictumst nostra aptent conubia, a mus habitant libero augue convallis faucibus.",
		"photos": ["https://jourtrip-app.s3.amazonaws.com/static/location_placeholder.png"],
		"tags": ["College & University"],
		"comments": [],
		"_id": "5cf87a4ddee96f6431b61c79",
		"name": "Fasenet",
		"address": "C/ San Antonio Abad 21 Local",
		"cc": "ES",
		"city": "Zaragoza",
		"state": "Aragon",
		"country": "Spain",
		"formatted_address": "C/ San Antonio Abad 21 Local, 50010 Zaragoza Aragon, Spain",
		"postal_code": "50010"
	}, {
		"geometry": {
			"type": "Point",
			"coordinates": [-0.8775384945405537, 41.65597234769357]
		},
		"rating": {
			"total_votes": 0,
			"total_values": 0,
			"value": 0
		},
		"description": "Lorem ipsum dolor sit amet consectetur adipiscing elit quisque, cras eros tempor dictumst nostra aptent conubia, a mus habitant libero augue convallis faucibus.",
		"photos": ["https://jourtrip-app.s3.amazonaws.com/static/location_placeholder.png"],
		"tags": ["Bar"],
		"comments": [],
		"_id": "5cf87a51dee96f6431b61c7f",
		"name": "Taberna Rosario",
		"cc": "ES",
		"country": "Spain",
		"formatted_address": "Spain"
	}, {
		"geometry": {
			"type": "Point",
			"coordinates": [-0.8775571177889823, 41.655860233324304]
		},
		"rating": {
			"total_votes": 0,
			"total_values": 0,
			"value": 0
		},
		"description": "Lorem ipsum dolor sit amet consectetur adipiscing elit quisque, cras eros tempor dictumst nostra aptent conubia, a mus habitant libero augue convallis faucibus.",
		"photos": ["https://fastly.4sqi.net/img/general/960x720/5935330_yr408LYak03XgM0hNolXNRjuuyFI5AZNf18DWjCjJkg.jpg"],
		"tags": ["Gift Shop"],
		"comments": [],
		"_id": "5cf87a3edee96f6431b61c66",
		"name": "La Mañica",
		"cc": "ES",
		"country": "Spain",
		"formatted_address": "Spain"
	}, {
		"geometry": {
			"type": "Point",
			"coordinates": [-0.8769857883453369, 41.656012226077145]
		},
		"rating": {
			"total_votes": 0,
			"total_values": 0,
			"value": 0
		},
		"description": "Lorem ipsum dolor sit amet consectetur adipiscing elit quisque, cras eros tempor dictumst nostra aptent conubia, a mus habitant libero augue convallis faucibus.",
		"photos": ["https://jourtrip-app.s3.amazonaws.com/static/location_placeholder.png"],
		"tags": ["Office"],
		"comments": [],
		"_id": "5cf87a7cdee96f6431b61cba",
		"name": "Voluntariado Por Zaragoza",
		"address": "Plaza del Pilar, 18",
		"cc": "ES",
		"city": "Zaragoza",
		"state": "Aragon",
		"country": "Spain",
		"formatted_address": "Plaza del Pilar, 18, 50002 Zaragoza Aragon, Spain",
		"postal_code": "50002"
	}, {
		"geometry": {
			"type": "Point",
			"coordinates": [-0.8774407226257175, 41.65576661846768]
		},
		"rating": {
			"total_votes": 0,
			"total_values": 0,
			"value": 0
		},
		"description": "Lorem ipsum dolor sit amet consectetur adipiscing elit quisque, cras eros tempor dictumst nostra aptent conubia, a mus habitant libero augue convallis faucibus.",
		"photos": ["https://fastly.4sqi.net/img/general/720x540/11254712_yRYfRqKRhaI7WdY3CbEGvBRZ1E8YgCduF4RF89Hg56I.jpg", "https://fastly.4sqi.net/img/general/537x720/jOkTkwdy2r0TG83FOik465h8oVHTK-iWr8ykt7MqwrI.jpg"],
		"tags": ["City Hall"],
		"comments": [],
		"_id": "5cf87a30dee96f6431b61c58",
		"name": "Ayuntamiento de Zaragoza",
		"address": "Plaza del Pilar 18",
		"cc": "ES",
		"city": "Zaragoza",
		"state": "Aragon",
		"country": "Spain",
		"formatted_address": "Plaza del Pilar 18, Zaragoza Aragon, Spain"
	}, {
		"geometry": {
			"type": "Point",
			"coordinates": [-0.8771008506487297, 41.65575011781527]
		},
		"rating": {
			"total_votes": 0,
			"total_values": 0,
			"value": 0
		},
		"description": "Lorem ipsum dolor sit amet consectetur adipiscing elit quisque, cras eros tempor dictumst nostra aptent conubia, a mus habitant libero augue convallis faucibus.",
		"photos": ["https://fastly.4sqi.net/img/general/640x640/35549452_JZ9WXF2_mNXOfPdm3O-YN3VfA5-X9RKm_jjbiywHfmU.jpg"],
		"tags": [],
		"comments": [],
		"_id": "5cf87a45dee96f6431b61c6f",
		"name": "Ayuntamiento Salón De Plenos",
		"address": "plaza pilar",
		"cc": "ES",
		"city": "Zaragoza",
		"state": "Aragon",
		"country": "Spain",
		"formatted_address": "plaza pilar, 50003 Zaragoza Aragon, Spain",
		"postal_code": "50003"
	}, {
		"geometry": {
			"type": "Point",
			"coordinates": [-0.877645578335062, 41.65577192942889]
		},
		"rating": {
			"total_votes": 0,
			"total_values": 0,
			"value": 0
		},
		"description": "Lorem ipsum dolor sit amet consectetur adipiscing elit quisque, cras eros tempor dictumst nostra aptent conubia, a mus habitant libero augue convallis faucibus.",
		"photos": ["https://fastly.4sqi.net/img/general/1440x1920/27136584_16qNtbP4WJQUrJKZaJdOv85UPOdvjmIV6AP1s2THqe0.jpg", "https://fastly.4sqi.net/img/general/1440x1920/27136584_n4AokSWAY2OIsBb1fkso7VmGOA5mg2stfCNKXc1tSrQ.jpg"],
		"tags": ["Art Gallery"],
		"comments": [],
		"_id": "5cf87a5bdee96f6431b61c8e",
		"name": "Casa Natal Goya",
		"cc": "ES",
		"city": "Fuendetodos",
		"state": "Aragon",
		"country": "Spain",
		"formatted_address": "Fuendetodos Aragon, Spain"
	}, {
		"geometry": {
			"type": "Point",
			"coordinates": [-0.8778655529022217, 41.65600020202248]
		},
		"rating": {
			"total_votes": 0,
			"total_values": 0,
			"value": 0
		},
		"description": "Lorem ipsum dolor sit amet consectetur adipiscing elit quisque, cras eros tempor dictumst nostra aptent conubia, a mus habitant libero augue convallis faucibus.",
		"photos": ["https://jourtrip-app.s3.amazonaws.com/static/location_placeholder.png"],
		"tags": [],
		"comments": [],
		"_id": "5cf87a58dee96f6431b61c8a",
		"name": "farmacia",
		"cc": "ES",
		"country": "Spain",
		"formatted_address": "Spain"
	}, {
		"geometry": {
			"type": "Point",
			"coordinates": [-0.8778119087218983, 41.655843257902845]
		},
		"rating": {
			"total_votes": 0,
			"total_values": 0,
			"value": 0
		},
		"description": "Lorem ipsum dolor sit amet consectetur adipiscing elit quisque, cras eros tempor dictumst nostra aptent conubia, a mus habitant libero augue convallis faucibus.",
		"photos": ["https://jourtrip-app.s3.amazonaws.com/static/location_placeholder.png"],
		"tags": ["Coworking Space"],
		"comments": [],
		"_id": "5cf87a7bdee96f6431b61cb9",
		"name": "Oficina El Bedel",
		"address": "c/santa isabel 10",
		"cc": "ES",
		"city": "Zaragoza",
		"state": "Aragon",
		"country": "Spain",
		"formatted_address": "c/santa isabel 10, 50003 Zaragoza Aragon, Spain",
		"postal_code": "50003"
	}, {
		"geometry": {
			"type": "Point",
			"coordinates": [-0.8777899091113177, 41.6563373702243]
		},
		"rating": {
			"total_votes": 0,
			"total_values": 0,
			"value": 0
		},
		"description": "Lorem ipsum dolor sit amet consectetur adipiscing elit quisque, cras eros tempor dictumst nostra aptent conubia, a mus habitant libero augue convallis faucibus.",
		"photos": ["https://jourtrip-app.s3.amazonaws.com/static/location_placeholder.png"],
		"tags": ["Paella Restaurant"],
		"comments": [],
		"_id": "5cf87a5edee96f6431b61c92",
		"name": "Reataurante Arrozal",
		"cc": "ES",
		"city": "Zaragoza",
		"state": "Aragon",
		"country": "Spain",
		"formatted_address": "Zaragoza Aragon, Spain"
	}, {
		"geometry": {
			"type": "Point",
			"coordinates": [-0.877741, 41.65574]
		},
		"rating": {
			"total_votes": 0,
			"total_values": 0,
			"value": 0
		},
		"description": "Lorem ipsum dolor sit amet consectetur adipiscing elit quisque, cras eros tempor dictumst nostra aptent conubia, a mus habitant libero augue convallis faucibus.",
		"photos": ["https://jourtrip-app.s3.amazonaws.com/static/location_placeholder.png"],
		"tags": ["Spanish Restaurant"],
		"comments": [],
		"_id": "5cf87a6fdee96f6431b61cab",
		"name": "Restaurante Aspen",
		"address": "Madre Rafols, 2",
		"cc": "ES",
		"city": "Zaragoza",
		"state": "Aragon",
		"country": "Spain",
		"formatted_address": "Madre Rafols, 2, Zaragoza Aragon, Spain"
	}, {
		"geometry": {
			"type": "Point",
			"coordinates": [-0.8771896362304688, 41.655583366739144]
		},
		"rating": {
			"total_votes": 0,
			"total_values": 0,
			"value": 0
		},
		"description": "Lorem ipsum dolor sit amet consectetur adipiscing elit quisque, cras eros tempor dictumst nostra aptent conubia, a mus habitant libero augue convallis faucibus.",
		"photos": ["https://jourtrip-app.s3.amazonaws.com/static/location_placeholder.png"],
		"tags": ["Music Venue"],
		"comments": [],
		"_id": "5cf87a75dee96f6431b61cb3",
		"name": "Máxima Independance",
		"address": "C/Gran Vía, 32 - 7ª Planta. 28013 Madrid",
		"cc": "ES",
		"city": "Zaragoza",
		"state": "Aragon",
		"country": "Spain",
		"formatted_address": "C/Gran Vía, 32 - 7ª Planta. 28013 Madrid, Zaragoza Aragon, Spain"
	}, {
		"geometry": {
			"type": "Point",
			"coordinates": [-0.8779947665732757, 41.65597694736397]
		},
		"rating": {
			"total_votes": 0,
			"total_values": 0,
			"value": 0
		},
		"description": "Lorem ipsum dolor sit amet consectetur adipiscing elit quisque, cras eros tempor dictumst nostra aptent conubia, a mus habitant libero augue convallis faucibus.",
		"photos": ["https://fastly.4sqi.net/img/general/960x539/79598917_OPFOc4MNTDWDDzNRPk7mBJlEFBvDBZtNCPY45i3-rYI.jpg", "https://fastly.4sqi.net/img/general/612x612/4375501_QugU6S4aEW4qwv7tZPa8omJWlL9aEmOidTKZaT9W3qQ.jpg"],
		"tags": ["Parking"],
		"comments": [],
		"_id": "5cf87a46dee96f6431b61c71",
		"name": "Parking Plaza Del Pilar",
		"address": "Plaza del Pilar",
		"cc": "ES",
		"city": "Zaragoza",
		"state": "Aragon",
		"country": "Spain",
		"formatted_address": "Plaza del Pilar, 50003 Zaragoza Aragon, Spain",
		"postal_code": "50003"
	}, {
		"geometry": {
			"type": "Point",
			"coordinates": [-0.878002, 41.655962]
		},
		"rating": {
			"total_votes": 0,
			"total_values": 0,
			"value": 0
		},
		"description": "Lorem ipsum dolor sit amet consectetur adipiscing elit quisque, cras eros tempor dictumst nostra aptent conubia, a mus habitant libero augue convallis faucibus.",
		"photos": ["https://jourtrip-app.s3.amazonaws.com/static/location_placeholder.png"],
		"tags": ["Concert Hall"],
		"comments": [],
		"_id": "5cf87a78dee96f6431b61cb4",
		"name": "Concierto Fangoria",
		"address": "Plaza del Pilar",
		"cc": "ES",
		"city": "Zaragoza",
		"state": "Aragon",
		"country": "Spain",
		"formatted_address": "Plaza del Pilar, Zaragoza Aragon, Spain"
	}, {
		"geometry": {
			"type": "Point",
			"coordinates": [-0.8768447845903455, 41.65570012426392]
		},
		"rating": {
			"total_votes": 0,
			"total_values": 0,
			"value": 0
		},
		"description": "Lorem ipsum dolor sit amet consectetur adipiscing elit quisque, cras eros tempor dictumst nostra aptent conubia, a mus habitant libero augue convallis faucibus.",
		"photos": ["https://fastly.4sqi.net/img/general/537x720/LYCDfkUc1QG66K8WeI-eGL7yqaU7U2Q0iSX7-fvWSjc.jpg", "https://fastly.4sqi.net/img/general/612x612/K0hGOoXoInCVRKy0HnUq85ahAqu9iq-v28Wc1iicZbs.jpg"],
		"tags": ["Tourist Information Center"],
		"comments": [],
		"_id": "5cf87a53dee96f6431b61c83",
		"name": "Meeting Point Universal Places El Pilar",
		"cc": "ES",
		"country": "Spain",
		"formatted_address": "Spain"
	}, {
		"geometry": {
			"type": "Point",
			"coordinates": [-0.8770421505490242, 41.655590072994826]
		},
		"rating": {
			"total_votes": 0,
			"total_values": 0,
			"value": 0
		},
		"description": "Lorem ipsum dolor sit amet consectetur adipiscing elit quisque, cras eros tempor dictumst nostra aptent conubia, a mus habitant libero augue convallis faucibus.",
		"photos": ["https://fastly.4sqi.net/img/general/1440x1920/29950905_N6MwRyL5qIZFKMm0XAHl2dl7XO1cFCJw2bckaI65xu4.jpg", "https://fastly.4sqi.net/img/general/1440x1920/29950905_kwrzkYfmVk0QTt1rE7zn0_4teY8wKiZWehS6bLvFlnE.jpg"],
		"tags": ["Sculpture Garden"],
		"comments": [],
		"_id": "5cf87a3bdee96f6431b61c62",
		"name": "Monumento a Goya",
		"cc": "ES",
		"city": "Zaragoza",
		"state": "Aragon",
		"country": "Spain",
		"formatted_address": "Zaragoza Aragon, Spain"
	}, {
		"geometry": {
			"type": "Point",
			"coordinates": [-0.876638, 41.656109]
		},
		"rating": {
			"total_votes": 0,
			"total_values": 0,
			"value": 0
		},
		"description": "Lorem ipsum dolor sit amet consectetur adipiscing elit quisque, cras eros tempor dictumst nostra aptent conubia, a mus habitant libero augue convallis faucibus.",
		"photos": ["https://jourtrip-app.s3.amazonaws.com/static/location_placeholder.png"],
		"tags": ["Memorial Site"],
		"comments": [],
		"_id": "5cf87a3bdee96f6431b61c61",
		"name": "Monumento A Manuel Lorenzo Pardo",
		"address": "Paseo De Echegaray Y Caballero",
		"cc": "ES",
		"city": "Zaragoza",
		"state": "Aragon",
		"country": "Spain",
		"formatted_address": "Paseo De Echegaray Y Caballero (Puente De Piedra), 50003 Zaragoza Aragon, Spain",
		"postal_code": "50003"
	}, {
		"geometry": {
			"type": "Point",
			"coordinates": [-0.877232551574707, 41.655526757240295]
		},
		"rating": {
			"total_votes": 0,
			"total_values": 0,
			"value": 0
		},
		"description": "Lorem ipsum dolor sit amet consectetur adipiscing elit quisque, cras eros tempor dictumst nostra aptent conubia, a mus habitant libero augue convallis faucibus.",
		"photos": ["https://jourtrip-app.s3.amazonaws.com/static/location_placeholder.png"],
		"tags": ["Office"],
		"comments": [],
		"_id": "5cf87a55dee96f6431b61c86",
		"name": "AyE consultores software",
		"address": "Pza. Ntra. Sra. del Pilar 16",
		"cc": "ES",
		"city": "Zaragoza",
		"state": "Aragon",
		"country": "Spain",
		"formatted_address": "Pza. Ntra. Sra. del Pilar 16, 50003 Zaragoza Aragon, Spain",
		"postal_code": "50003"
	}, {
		"geometry": {
			"type": "Point",
			"coordinates": [-0.8780908584594727, 41.655944089737616]
		},
		"rating": {
			"total_votes": 0,
			"total_values": 0,
			"value": 0
		},
		"description": "Lorem ipsum dolor sit amet consectetur adipiscing elit quisque, cras eros tempor dictumst nostra aptent conubia, a mus habitant libero augue convallis faucibus.",
		"photos": ["https://fastly.4sqi.net/img/general/594x874/4029115_EoEb2tWjrnRQvOf8NY_qBLGk4NEibOq5YsVMTWVvBYE.jpg"],
		"tags": ["Historic Site"],
		"comments": [],
		"_id": "5cf87a64dee96f6431b61c9c",
		"name": "378. Mudejar Architecture of Aragón (1986/2001)",
		"address": "Arquitectura mudéjar de Aragón",
		"cc": "ES",
		"city": "Zaragoza",
		"state": "Aragon",
		"country": "Spain",
		"formatted_address": "Arquitectura mudéjar de Aragón (UNESCO World Heritage List), Zaragoza Aragon, Spain"
	}, {
		"geometry": {
			"type": "Point",
			"coordinates": [-0.8765747530328524, 41.65600401618333]
		},
		"rating": {
			"total_votes": 0,
			"total_values": 0,
			"value": 0
		},
		"description": "Lorem ipsum dolor sit amet consectetur adipiscing elit quisque, cras eros tempor dictumst nostra aptent conubia, a mus habitant libero augue convallis faucibus.",
		"photos": ["https://jourtrip-app.s3.amazonaws.com/static/location_placeholder.png"],
		"tags": ["Seafood Restaurant"],
		"comments": [],
		"_id": "5cf87a64dee96f6431b61c9b",
		"name": "Berlanche",
		"address": "Don Jaime, 44",
		"cc": "ES",
		"city": "Zaragoza",
		"state": "Aragon",
		"country": "Spain",
		"formatted_address": "Don Jaime, 44, Zaragoza Aragon, Spain"
	}, {
		"geometry": {
			"type": "Point",
			"coordinates": [-0.8769751452920378, 41.65551455861354]
		},
		"rating": {
			"total_votes": 0,
			"total_values": 0,
			"value": 0
		},
		"description": "Lorem ipsum dolor sit amet consectetur adipiscing elit quisque, cras eros tempor dictumst nostra aptent conubia, a mus habitant libero augue convallis faucibus.",
		"photos": ["https://fastly.4sqi.net/img/general/960x720/33125247_fwR4ENyJRfMfeZ3Wc61vRaIXbpyiDZR7B-kemX7CjTg.jpg", "https://fastly.4sqi.net/img/general/1918x1434/3840728_sBj5SR8xAQxe5H37qf7ssM17C2P-uXwn6jsOG7_ChTQ.jpg"],
		"tags": ["Ice Cream Shop"],
		"comments": [],
		"_id": "5cf87a4fdee96f6431b61c7c",
		"name": "Ferretti Gelato E Caffe",
		"cc": "ES",
		"country": "Spain",
		"formatted_address": "Spain"
	}, {
		"geometry": {
			"type": "Point",
			"coordinates": [-0.878152, 41.656213]
		},
		"rating": {
			"total_votes": 0,
			"total_values": 0,
			"value": 0
		},
		"description": "Lorem ipsum dolor sit amet consectetur adipiscing elit quisque, cras eros tempor dictumst nostra aptent conubia, a mus habitant libero augue convallis faucibus.",
		"photos": ["https://jourtrip-app.s3.amazonaws.com/static/location_placeholder.png"],
		"tags": [],
		"comments": [],
		"_id": "5cf87a59dee96f6431b61c8b",
		"name": "Basilicus",
		"address": "Plaza del Pilar, 10",
		"cc": "ES",
		"city": "Zaragoza",
		"state": "Aragon",
		"country": "Spain",
		"formatted_address": "Plaza del Pilar, 10, Zaragoza Aragon, Spain"
	}, {
		"geometry": {
			"type": "Point",
			"coordinates": [-0.877264, 41.655427]
		},
		"rating": {
			"total_votes": 0,
			"total_values": 0,
			"value": 0
		},
		"description": "Lorem ipsum dolor sit amet consectetur adipiscing elit quisque, cras eros tempor dictumst nostra aptent conubia, a mus habitant libero augue convallis faucibus.",
		"photos": ["https://fastly.4sqi.net/img/general/1440x1920/214964752_JNIaDGYxZeK8LdgAuqMc-ZpAGFiUXA5cdYyqkaBwFf8.jpg", "https://fastly.4sqi.net/img/general/1080x1080/90251537_iELzxQyARPn-Fzbc_Sks7MRPjpJvm2xItJmTMD8kq-s.jpg"],
		"tags": ["Spanish Restaurant"],
		"comments": [],
		"_id": "5cf87a5ddee96f6431b61c90",
		"name": "casa gulay restorant barç",
		"cc": "ES",
		"country": "Spain",
		"formatted_address": "Spain"
	}, {
		"geometry": {
			"type": "Point",
			"coordinates": [-0.8765379, 41.6562873]
		},
		"rating": {
			"total_votes": 0,
			"total_values": 0,
			"value": 0
		},
		"description": "Lorem ipsum dolor sit amet consectetur adipiscing elit quisque, cras eros tempor dictumst nostra aptent conubia, a mus habitant libero augue convallis faucibus.",
		"photos": ["https://jourtrip-app.s3.amazonaws.com/static/location_placeholder.png"],
		"tags": [],
		"comments": [],
		"_id": "5cf87a52dee96f6431b61c81",
		"name": "Santa Fe Hotel Los Cabos",
		"address": ". ZARAGOZA ESQ.ALVARO OBREGÃƒÂ“N S/N",
		"cc": "ES",
		"city": "Los Cabos",
		"country": "Spain",
		"formatted_address": ". ZARAGOZA ESQ.ALVARO OBREGÃƒÂ“N S/N, Los Cabos, Spain"
	}, {
		"geometry": {
			"type": "Point",
			"coordinates": [-0.8765379190444946, 41.656288146972656]
		},
		"rating": {
			"total_votes": 0,
			"total_values": 0,
			"value": 0
		},
		"description": "Lorem ipsum dolor sit amet consectetur adipiscing elit quisque, cras eros tempor dictumst nostra aptent conubia, a mus habitant libero augue convallis faucibus.",
		"photos": ["https://jourtrip-app.s3.amazonaws.com/static/location_placeholder.png"],
		"tags": ["Chinese Restaurant"],
		"comments": [],
		"_id": "5cf87a7bdee96f6431b61cb8",
		"name": "Rockstar Fusion Sushi Lounge",
		"address": "Zaragosa",
		"cc": "ES",
		"country": "Spain",
		"formatted_address": "Zaragosa, Spain"
	}, {
		"geometry": {
			"type": "Point",
			"coordinates": [-0.8765379190444946, 41.656288146972656]
		},
		"rating": {
			"total_votes": 0,
			"total_values": 0,
			"value": 0
		},
		"description": "Lorem ipsum dolor sit amet consectetur adipiscing elit quisque, cras eros tempor dictumst nostra aptent conubia, a mus habitant libero augue convallis faucibus.",
		"photos": ["https://jourtrip-app.s3.amazonaws.com/static/location_placeholder.png"],
		"tags": ["Burger Joint"],
		"comments": [],
		"_id": "5cf87a53dee96f6431b61c82",
		"name": "Whataburger",
		"address": "Saragossa",
		"cc": "ES",
		"city": "Zaragoza",
		"state": "Aragon",
		"country": "Spain",
		"formatted_address": "Saragossa, Zaragoza Aragon, Spain"
	}, {
		"geometry": {
			"type": "Point",
			"coordinates": [-0.8768510126200121, 41.65552424505582]
		},
		"rating": {
			"total_votes": 0,
			"total_values": 0,
			"value": 0
		},
		"description": "Lorem ipsum dolor sit amet consectetur adipiscing elit quisque, cras eros tempor dictumst nostra aptent conubia, a mus habitant libero augue convallis faucibus.",
		"photos": ["https://fastly.4sqi.net/img/general/4368x2912/Fs3T1BbSqhRVKB4Y8_Uo17g4bWrar5j2DTn-w99j6x4.jpg", "https://fastly.4sqi.net/img/general/720x540/ZUUVL0T0PWKFFTAX2LFUYIGKUJZFAGIRM00FX5WICESCUKTN.jpg"],
		"tags": ["Art Gallery"],
		"comments": [],
		"_id": "5cf87a31dee96f6431b61c59",
		"name": "Palacio de la Lonja",
		"cc": "ES",
		"city": "Zaragoza",
		"state": "Aragon",
		"country": "Spain",
		"formatted_address": "Zaragoza Aragon, Spain"
	}, {
		"geometry": {
			"type": "Point",
			"coordinates": [-0.876565441631702, 41.65635460857503]
		},
		"rating": {
			"total_votes": 0,
			"total_values": 0,
			"value": 0
		},
		"description": "Lorem ipsum dolor sit amet consectetur adipiscing elit quisque, cras eros tempor dictumst nostra aptent conubia, a mus habitant libero augue convallis faucibus.",
		"photos": ["https://jourtrip-app.s3.amazonaws.com/static/location_placeholder.png"],
		"tags": ["Automotive Shop"],
		"comments": [],
		"_id": "5cf87a54dee96f6431b61c84",
		"name": "GASOLINERA VALDESPARTERA",
		"address": "Zaragoza",
		"cc": "ES",
		"city": "Zaragoza",
		"state": "Aragon",
		"country": "Spain",
		"formatted_address": "Zaragoza, Zaragoza Aragon, Spain"
	}, {
		"geometry": {
			"type": "Point",
			"coordinates": [-0.8782, 41.6559]
		},
		"rating": {
			"total_votes": 0,
			"total_values": 0,
			"value": 0
		},
		"description": "Lorem ipsum dolor sit amet consectetur adipiscing elit quisque, cras eros tempor dictumst nostra aptent conubia, a mus habitant libero augue convallis faucibus.",
		"photos": ["https://jourtrip-app.s3.amazonaws.com/static/location_placeholder.png"],
		"tags": ["Event Space"],
		"comments": [],
		"_id": "5cf87a67dee96f6431b61ca1",
		"name": "Juegos Ambar",
		"cc": "ES",
		"country": "Spain",
		"formatted_address": "Spain"
	}, {
		"geometry": {
			"type": "Point",
			"coordinates": [-0.8769937682834132, 41.65544710849463]
		},
		"rating": {
			"total_votes": 0,
			"total_values": 0,
			"value": 0
		},
		"description": "Lorem ipsum dolor sit amet consectetur adipiscing elit quisque, cras eros tempor dictumst nostra aptent conubia, a mus habitant libero augue convallis faucibus.",
		"photos": ["https://fastly.4sqi.net/img/general/612x612/nW5HJJCpUFT7b140sYfFsbGbugi4_DhDjb-_tCJv3F0.jpg", "https://fastly.4sqi.net/img/general/540x720/_NUd1dcW6-1U2cHuJ2FMj-HswkblX8j1DRW1TewVROA.jpg"],
		"tags": ["Café"],
		"comments": [],
		"_id": "5cf87a61dee96f6431b61c97",
		"name": "Cioccolatte",
		"address": "Plaza del Pilar 16",
		"cc": "ES",
		"city": "Zaragoza",
		"state": "Aragon",
		"country": "Spain",
		"formatted_address": "Plaza del Pilar 16, 50001 Zaragoza Aragon, Spain",
		"postal_code": "50001"
	}, {
		"geometry": {
			"type": "Point",
			"coordinates": [-0.8782390062146738, 41.65592563589164]
		},
		"rating": {
			"total_votes": 0,
			"total_values": 0,
			"value": 0
		},
		"description": "Lorem ipsum dolor sit amet consectetur adipiscing elit quisque, cras eros tempor dictumst nostra aptent conubia, a mus habitant libero augue convallis faucibus.",
		"photos": ["https://fastly.4sqi.net/img/general/720x540/wXpLE8Mb5DqZvoZnUAI2IhmnDKSwVw8sXv1v5iXa2iM.jpg", "https://fastly.4sqi.net/img/general/720x960/7558162_g_O-JO3DKJiUYLie88TzUadvELnG3OnDWQFpkZkWj0g.jpg"],
		"tags": ["Hotel"],
		"comments": [],
		"_id": "5cf87a6bdee96f6431b61ca7",
		"name": "hotel las torres",
		"cc": "ES",
		"city": "Zaragoza",
		"state": "Aragon",
		"country": "Spain",
		"formatted_address": "Zaragoza Aragon, Spain"
	}, {
		"geometry": {
			"type": "Point",
			"coordinates": [-0.8775544166564941, 41.65672965727696]
		},
		"rating": {
			"total_votes": 0,
			"total_values": 0,
			"value": 0
		},
		"description": "Lorem ipsum dolor sit amet consectetur adipiscing elit quisque, cras eros tempor dictumst nostra aptent conubia, a mus habitant libero augue convallis faucibus.",
		"photos": ["https://fastly.4sqi.net/img/general/960x720/82051764_iXrAD0wLnO0CGbUnbQSTuc2lGrCURRERy2Pb1eDteb0.jpg", "https://fastly.4sqi.net/img/general/960x720/82051764_h48AV9TsXC-j3cCC6HlmGM429kXSM8xF1ml2fc5vAwg.jpg"],
		"tags": ["General Entertainment"],
		"comments": [],
		"_id": "5cf87a63dee96f6431b61c9a",
		"name": "Megabus",
		"address": "Paseo Echegaray Caballero",
		"cc": "ES",
		"city": "Zaragoza",
		"state": "Aragon",
		"country": "Spain",
		"formatted_address": "Paseo Echegaray Caballero (Jardiel), Zaragoza Aragon, Spain"
	}, {
		"geometry": {
			"type": "Point",
			"coordinates": [-0.8764769834267297, 41.65576620826888]
		},
		"rating": {
			"total_votes": 0,
			"total_values": 0,
			"value": 0
		},
		"description": "Lorem ipsum dolor sit amet consectetur adipiscing elit quisque, cras eros tempor dictumst nostra aptent conubia, a mus habitant libero augue convallis faucibus.",
		"photos": ["https://fastly.4sqi.net/img/general/960x960/10363729_HJQTomeTeUPrATKlE8ryQxUGqYnsXPjIZZuUZU4RYS4.jpg"],
		"tags": ["Church"],
		"comments": [],
		"_id": "5cf87a60dee96f6431b61c94",
		"name": "Parroquieta de la Seo",
		"cc": "ES",
		"country": "Spain",
		"formatted_address": "Spain"
	}, {
		"geometry": {
			"type": "Point",
			"coordinates": [-0.8782796433992419, 41.65590284120711]
		},
		"rating": {
			"total_votes": 0,
			"total_values": 0,
			"value": 0
		},
		"description": "Lorem ipsum dolor sit amet consectetur adipiscing elit quisque, cras eros tempor dictumst nostra aptent conubia, a mus habitant libero augue convallis faucibus.",
		"photos": ["https://fastly.4sqi.net/img/general/720x960/648372_AHmS5owS9Lix_dfuSbr3m_HMg9AIjXABEmtiWaL7Q28.jpg", "https://fastly.4sqi.net/img/general/612x612/35549452_xGa_UENwDfMEmhky9U4j3ukGtLIxTHWN8H4LxBZagmU.jpg"],
		"tags": ["Tourist Information Center"],
		"comments": [],
		"_id": "5cf87a39dee96f6431b61c5f",
		"name": "Oficina de Turismo Plaza del Pilar",
		"address": "Plaza del Pilar s/n",
		"cc": "ES",
		"city": "Zaragoza",
		"state": "Aragon",
		"country": "Spain",
		"formatted_address": "Plaza del Pilar s/n, 50003 Zaragoza Aragon, Spain",
		"postal_code": "50003"
	}, {
		"geometry": {
			"type": "Point",
			"coordinates": [-0.8767, 41.6555]
		},
		"rating": {
			"total_votes": 0,
			"total_values": 0,
			"value": 0
		},
		"description": "Lorem ipsum dolor sit amet consectetur adipiscing elit quisque, cras eros tempor dictumst nostra aptent conubia, a mus habitant libero augue convallis faucibus.",
		"photos": ["https://fastly.4sqi.net/img/general/1440x1440/37652983_GLKTGBpqxHToSLsVaK15lFFjWf_RdTBIlFekeKkhEWI.jpg"],
		"tags": ["Gift Shop"],
		"comments": [],
		"_id": "5cf87a5cdee96f6431b61c8f",
		"name": "Juancho",
		"cc": "ES",
		"country": "Spain",
		"formatted_address": "Spain"
	}, {
		"geometry": {
			"type": "Point",
			"coordinates": [-0.8783253341914306, 41.65592741295058]
		},
		"rating": {
			"total_votes": 0,
			"total_values": 0,
			"value": 0
		},
		"description": "Lorem ipsum dolor sit amet consectetur adipiscing elit quisque, cras eros tempor dictumst nostra aptent conubia, a mus habitant libero augue convallis faucibus.",
		"photos": ["https://jourtrip-app.s3.amazonaws.com/static/location_placeholder.png"],
		"tags": ["Ice Cream Shop"],
		"comments": [],
		"_id": "5cf87a79dee96f6431b61cb5",
		"name": "Heladeria Ferreti",
		"address": "Pl. del Pilar",
		"cc": "ES",
		"city": "Zaragoza",
		"state": "Aragon",
		"country": "Spain",
		"formatted_address": "Pl. del Pilar, 50003 Zaragoza Aragon, Spain",
		"postal_code": "50003"
	}, {
		"geometry": {
			"type": "Point",
			"coordinates": [-0.8781981468200684, 41.65566352758006]
		},
		"rating": {
			"total_votes": 0,
			"total_values": 0,
			"value": 0
		},
		"description": "Lorem ipsum dolor sit amet consectetur adipiscing elit quisque, cras eros tempor dictumst nostra aptent conubia, a mus habitant libero augue convallis faucibus.",
		"photos": ["https://fastly.4sqi.net/img/general/4320x3240/xfuDNaSFG80iKKBkLE6y3ughsvhjr8Dx1kCLm9ncKk0.jpg"],
		"tags": ["General Entertainment"],
		"comments": [],
		"_id": "5cf87a56dee96f6431b61c88",
		"name": "Paseo de Goya",
		"address": "Plaza del Pilar (oficina de turismo)",
		"cc": "ES",
		"city": "Zaragoza",
		"state": "Aragon",
		"country": "Spain",
		"formatted_address": "Plaza del Pilar (oficina de turismo), Zaragoza Aragon, Spain"
	}, {
		"geometry": {
			"type": "Point",
			"coordinates": [-0.8781552314758301, 41.6555993989153]
		},
		"rating": {
			"total_votes": 0,
			"total_values": 0,
			"value": 0
		},
		"description": "Lorem ipsum dolor sit amet consectetur adipiscing elit quisque, cras eros tempor dictumst nostra aptent conubia, a mus habitant libero augue convallis faucibus.",
		"photos": ["https://fastly.4sqi.net/img/general/4320x3240/bSz1OwCmftH4M70Ciy4kMwK_cX22z6eukrTaxYV_Nb8.jpg"],
		"tags": ["General Entertainment"],
		"comments": [],
		"_id": "5cf87a6ddee96f6431b61caa",
		"name": "Paseo Renacentista",
		"address": "Plaza del Pilar (Oficina de Turismo)",
		"cc": "ES",
		"city": "Zaragoza",
		"state": "Plaza del Pilar",
		"country": "Spain",
		"formatted_address": "Plaza del Pilar (Oficina de Turismo), Zaragoza Plaza del Pilar, Spain"
	}, {
		"geometry": {
			"type": "Point",
			"coordinates": [-0.877301, 41.655286]
		},
		"rating": {
			"total_votes": 0,
			"total_values": 0,
			"value": 0
		},
		"description": "Lorem ipsum dolor sit amet consectetur adipiscing elit quisque, cras eros tempor dictumst nostra aptent conubia, a mus habitant libero augue convallis faucibus.",
		"photos": ["https://jourtrip-app.s3.amazonaws.com/static/location_placeholder.png"],
		"tags": ["Hostel"],
		"comments": [],
		"_id": "5cf87a47dee96f6431b61c72",
		"name": "Hostal Plaza",
		"address": "Plaza del Pilar, 14",
		"cc": "ES",
		"city": "Zaragoza",
		"state": "Aragon",
		"country": "Spain",
		"formatted_address": "Plaza del Pilar, 14, 50001 Zaragoza Aragon, Spain",
		"postal_code": "50001"
	}, {
		"geometry": {
			"type": "Point",
			"coordinates": [-0.876353, 41.656308]
		},
		"rating": {
			"total_votes": 0,
			"total_values": 0,
			"value": 0
		},
		"description": "Lorem ipsum dolor sit amet consectetur adipiscing elit quisque, cras eros tempor dictumst nostra aptent conubia, a mus habitant libero augue convallis faucibus.",
		"photos": ["https://jourtrip-app.s3.amazonaws.com/static/location_placeholder.png"],
		"tags": ["Snack Place"],
		"comments": [],
		"_id": "5cf87a3adee96f6431b61c60",
		"name": "Martin Martin Montecanal",
		"address": "Montecanal",
		"cc": "ES",
		"city": "Zaragoza",
		"state": "Aragon",
		"country": "Spain",
		"formatted_address": "Montecanal, Zaragoza Aragon, Spain"
	}, {
		"geometry": {
			"type": "Point",
			"coordinates": [-0.87693346, 41.655342]
		},
		"rating": {
			"total_votes": 0,
			"total_values": 0,
			"value": 0
		},
		"description": "Lorem ipsum dolor sit amet consectetur adipiscing elit quisque, cras eros tempor dictumst nostra aptent conubia, a mus habitant libero augue convallis faucibus.",
		"photos": ["https://fastly.4sqi.net/img/general/897x1900/3842423_Sbw7wQLFApnjkLt5t3yayrhUqRp3T9pgLUs71qT-xpY.jpg"],
		"tags": ["Coffee Shop"],
		"comments": [],
		"_id": "5cf87a4edee96f6431b61c7b",
		"name": "La Bienvenida",
		"cc": "ES",
		"city": "Zaragoza",
		"state": "Aragon",
		"country": "Spain",
		"formatted_address": "50003 Zaragoza Aragon, Spain",
		"postal_code": "50003"
	}, {
		"geometry": {
			"type": "Point",
			"coordinates": [-0.8777107599127513, 41.6553301587533]
		},
		"rating": {
			"total_votes": 0,
			"total_values": 0,
			"value": 0
		},
		"description": "Lorem ipsum dolor sit amet consectetur adipiscing elit quisque, cras eros tempor dictumst nostra aptent conubia, a mus habitant libero augue convallis faucibus.",
		"photos": ["https://fastly.4sqi.net/img/general/640x640/4539956_CaNYhCUfJfVO1dWAIWgELYLHwF4HvfkVOyPUVCxZNcA.jpg", "https://fastly.4sqi.net/img/general/720x960/1522463_eufI6LdIlxBLM5WypOfgeDt5RjzKUYnn9EnWWF0c72A.jpg"],
		"tags": ["Building"],
		"comments": [],
		"_id": "5cf87a42dee96f6431b61c6b",
		"name": "Palacio De Montemuzo",
		"cc": "ES",
		"country": "Spain",
		"formatted_address": "Spain"
	}, {
		"geometry": {
			"type": "Point",
			"coordinates": [-0.8769606947898865, 41.65532302856445]
		},
		"rating": {
			"total_votes": 0,
			"total_values": 0,
			"value": 0
		},
		"description": "Lorem ipsum dolor sit amet consectetur adipiscing elit quisque, cras eros tempor dictumst nostra aptent conubia, a mus habitant libero augue convallis faucibus.",
		"photos": ["https://fastly.4sqi.net/img/general/1080x1920/21581153_tVud17hWUxQrp5E-Kl35LXumMtskOrz65p8RDaL94ds.jpg"],
		"tags": ["Ice Cream Shop"],
		"comments": [],
		"_id": "5cf87a73dee96f6431b61cb1",
		"name": "ferrety",
		"cc": "ES",
		"country": "Spain",
		"formatted_address": "Spain"
	}, {
		"geometry": {
			"type": "Point",
			"coordinates": [-0.8781981468200684, 41.655583366739144]
		},
		"rating": {
			"total_votes": 0,
			"total_values": 0,
			"value": 0
		},
		"description": "Lorem ipsum dolor sit amet consectetur adipiscing elit quisque, cras eros tempor dictumst nostra aptent conubia, a mus habitant libero augue convallis faucibus.",
		"photos": ["https://fastly.4sqi.net/img/general/2592x3888/25254398_wVjXmwFD7ykqHEpIkiuwLTxh2t6IAGuvEk8wKFLTHBc.jpg"],
		"tags": ["General Entertainment"],
		"comments": [],
		"_id": "5cf87a71dee96f6431b61cae",
		"name": "Visita Casco Histórico",
		"address": "Plaza del Pilar (Oficina de Turismo)",
		"cc": "ES",
		"city": "Zaragoza",
		"state": "Aragon",
		"country": "Spain",
		"formatted_address": "Plaza del Pilar (Oficina de Turismo), 50003 Zaragoza Aragon, Spain",
		"postal_code": "50003"
	}, {
		"geometry": {
			"type": "Point",
			"coordinates": [-0.8781577221067942, 41.65554342324811]
		},
		"rating": {
			"total_votes": 0,
			"total_values": 0,
			"value": 0
		},
		"description": "Lorem ipsum dolor sit amet consectetur adipiscing elit quisque, cras eros tempor dictumst nostra aptent conubia, a mus habitant libero augue convallis faucibus.",
		"photos": ["https://fastly.4sqi.net/img/general/960x720/4529270_ZK7IRzg0kJ36uKIThFWctzyGLptI11DGEOJc1zf0IPw.jpg", "https://fastly.4sqi.net/img/general/720x540/25888746_iSr1RNU-xgJBEXR-S6eylvJPZ197VLlKjYmNJYamIJA.jpg"],
		"tags": ["Skating Rink"],
		"comments": [],
		"_id": "5cf87a4bdee96f6431b61c77",
		"name": "Pista De Hielo Pza. Pilar",
		"address": "Pza del Pilar",
		"cc": "ES",
		"city": "Zaragoza",
		"state": "Aragon",
		"country": "Spain",
		"formatted_address": "Pza del Pilar, Zaragoza Aragon, Spain"
	}, {
		"geometry": {
			"type": "Point",
			"coordinates": [-0.8783486137020663, 41.65634104620446]
		},
		"rating": {
			"total_votes": 0,
			"total_values": 0,
			"value": 0
		},
		"description": "Lorem ipsum dolor sit amet consectetur adipiscing elit quisque, cras eros tempor dictumst nostra aptent conubia, a mus habitant libero augue convallis faucibus.",
		"photos": ["https://fastly.4sqi.net/img/general/1440x1920/5252292_FChJf6u-M8-l-5O6KBgp9JsbXnMTX8IsyCsDv1sRbnY.jpg"],
		"tags": ["Bar"],
		"comments": [],
		"_id": "5cf87a40dee96f6431b61c69",
		"name": "Bar Boulevard",
		"cc": "ES",
		"city": "Zaragoza",
		"state": "Aragon",
		"country": "Spain",
		"formatted_address": "Zaragoza Aragon, Spain"
	}, {
		"geometry": {
			"type": "Point",
			"coordinates": [-0.8775850526775577, 41.65526607479592]
		},
		"rating": {
			"total_votes": 0,
			"total_values": 0,
			"value": 0
		},
		"description": "Lorem ipsum dolor sit amet consectetur adipiscing elit quisque, cras eros tempor dictumst nostra aptent conubia, a mus habitant libero augue convallis faucibus.",
		"photos": ["https://jourtrip-app.s3.amazonaws.com/static/location_placeholder.png"],
		"tags": ["Parking"],
		"comments": [],
		"_id": "5cf87a3ddee96f6431b61c64",
		"name": "Parking Ayuntamiento Epsa",
		"address": "Calle Milagro de Calanda",
		"cc": "ES",
		"city": "Zaragoza",
		"state": "Aragon",
		"country": "Spain",
		"formatted_address": "Calle Milagro de Calanda (Paseo de Echegaray y Caballero), 50003 Zaragoza Aragon, Spain",
		"postal_code": "50003"
	}, {
		"geometry": {
			"type": "Point",
			"coordinates": [-0.8768121944799834, 41.65533524084894]
		},
		"rating": {
			"total_votes": 0,
			"total_values": 0,
			"value": 0
		},
		"description": "Lorem ipsum dolor sit amet consectetur adipiscing elit quisque, cras eros tempor dictumst nostra aptent conubia, a mus habitant libero augue convallis faucibus.",
		"photos": ["https://jourtrip-app.s3.amazonaws.com/static/location_placeholder.png"],
		"tags": ["Kids Store"],
		"comments": [],
		"_id": "5cf87a62dee96f6431b61c99",
		"name": "Nacarbaby",
		"address": "Don Jaime I, 24",
		"cc": "ES",
		"city": "Zaragoza",
		"state": "Aragon",
		"country": "Spain",
		"formatted_address": "Don Jaime I, 24, Zaragoza Aragon, Spain"
	}, {
		"geometry": {
			"type": "Point",
			"coordinates": [-0.8784465636152722, 41.65605173559194]
		},
		"rating": {
			"total_votes": 0,
			"total_values": 0,
			"value": 0
		},
		"description": "Lorem ipsum dolor sit amet consectetur adipiscing elit quisque, cras eros tempor dictumst nostra aptent conubia, a mus habitant libero augue convallis faucibus.",
		"photos": ["https://fastly.4sqi.net/img/general/612x612/4189440_tfA12_JJyhZs7ZvV-PBLUQ1O6oGu_wvJSDMLcuZKBx4.jpg", "https://fastly.4sqi.net/img/general/960x720/88036_aVd3RS7aEP98snzQmhs6e_-SWtdofBAe6NilL1RY7d0.jpg"],
		"tags": ["Church"],
		"comments": [],
		"_id": "5cf87a38dee96f6431b61c5d",
		"name": "Basílica de Nuestra Señora del Pilar",
		"address": "Plaza de Nuestra Señora del Pilar",
		"cc": "ES",
		"city": "Zaragoza",
		"state": "Aragon",
		"country": "Spain",
		"formatted_address": "Plaza de Nuestra Señora del Pilar, 50003 Zaragoza Aragon, Spain",
		"postal_code": "50003"
	}, {
		"geometry": {
			"type": "Point",
			"coordinates": [-0.878429, 41.655856]
		},
		"rating": {
			"total_votes": 0,
			"total_values": 0,
			"value": 0
		},
		"description": "Lorem ipsum dolor sit amet consectetur adipiscing elit quisque, cras eros tempor dictumst nostra aptent conubia, a mus habitant libero augue convallis faucibus.",
		"photos": ["https://jourtrip-app.s3.amazonaws.com/static/location_placeholder.png"],
		"tags": ["Paella Restaurant"],
		"comments": [],
		"_id": "5cf87a60dee96f6431b61c95",
		"name": "Paellador",
		"cc": "ES",
		"city": "Zaragoza",
		"state": "Aragon",
		"country": "Spain",
		"formatted_address": "50003 Zaragoza Aragon, Spain",
		"postal_code": "50003"
	}, {
		"geometry": {
			"type": "Point",
			"coordinates": [-0.8765888214111328, 41.65543106086653]
		},
		"rating": {
			"total_votes": 0,
			"total_values": 0,
			"value": 0
		},
		"description": "Lorem ipsum dolor sit amet consectetur adipiscing elit quisque, cras eros tempor dictumst nostra aptent conubia, a mus habitant libero augue convallis faucibus.",
		"photos": ["https://fastly.4sqi.net/img/general/720x960/38873360_1T8_xe-89n0JpZPOw2cVlJvtwGPDPCm37mx8BmO2xJk.jpg", "https://fastly.4sqi.net/img/general/960x720/55397499_4YmEndkaa66KCxitb5H9RO6umTc2MFN8x3v4f-TW-UI.jpg"],
		"tags": ["Bus Station"],
		"comments": [],
		"_id": "5cf87a51dee96f6431b61c7e",
		"name": "Bus Turístico diurno Zaragoza",
		"address": "C/ Don Jaime",
		"cc": "ES",
		"city": "Zaragoza",
		"state": "Aragon",
		"country": "Spain",
		"formatted_address": "C/ Don Jaime, Zaragoza Aragon, Spain"
	}, {
		"geometry": {
			"type": "Point",
			"coordinates": [-0.8781018515648689, 41.655425932365276]
		},
		"rating": {
			"total_votes": 0,
			"total_values": 0,
			"value": 0
		},
		"description": "Lorem ipsum dolor sit amet consectetur adipiscing elit quisque, cras eros tempor dictumst nostra aptent conubia, a mus habitant libero augue convallis faucibus.",
		"photos": ["https://fastly.4sqi.net/img/general/1440x1920/5252292_XFPYQYzdFny5txIkiiz_5IcM3kDAKh7gGvkjogo-2cA.jpg", "https://fastly.4sqi.net/img/general/720x540/6PSn65fZB7zzdgPxUfyE5K_IQOowh9BhJHWxt-e9EaA.jpg"],
		"tags": ["Capitol Building"],
		"comments": [],
		"_id": "5cf87a61dee96f6431b61c96",
		"name": "Delegación De Gobierno",
		"address": "Plaza del Pilar, Plaza de Nuestra Señora del Pilar, 50003 Zaragoza",
		"cc": "ES",
		"city": "Zaragoza",
		"state": "Aragon",
		"country": "Spain",
		"formatted_address": "Plaza del Pilar, Plaza de Nuestra Señora del Pilar, 50003 Zaragoza, 50003 Zaragoza Aragon, Spain",
		"postal_code": "50003"
	}, {
		"geometry": {
			"type": "Point",
			"coordinates": [-0.8761993307252238, 41.65610459503981]
		},
		"rating": {
			"total_votes": 0,
			"total_values": 0,
			"value": 0
		},
		"description": "Lorem ipsum dolor sit amet consectetur adipiscing elit quisque, cras eros tempor dictumst nostra aptent conubia, a mus habitant libero augue convallis faucibus.",
		"photos": ["https://fastly.4sqi.net/img/general/540x960/6243674_ZGHD2qnkFGEaXHRU11yj4svvBfPJ7g18SM9kQ0rx4GI.jpg", "https://fastly.4sqi.net/img/general/640x640/959619_OF64hLZyCsBz37noKYdTzdQ2e05sU4b1ZypzmgO_oaQ.jpg"],
		"tags": ["Plaza"],
		"comments": [],
		"_id": "5cf87a3cdee96f6431b61c63",
		"name": "Plaza Del Caballito",
		"address": "Paseo Echegarai",
		"cc": "ES",
		"city": "Zaragoza",
		"state": "Aragon",
		"country": "Spain",
		"formatted_address": "Paseo Echegarai (Don Jaime I), Zaragoza Aragon, Spain"
	}, {
		"geometry": {
			"type": "Point",
			"coordinates": [-0.8773827368355426, 41.65520157980185]
		},
		"rating": {
			"total_votes": 0,
			"total_values": 0,
			"value": 0
		},
		"description": "Lorem ipsum dolor sit amet consectetur adipiscing elit quisque, cras eros tempor dictumst nostra aptent conubia, a mus habitant libero augue convallis faucibus.",
		"photos": ["https://fastly.4sqi.net/img/general/1920x1440/43147903_fwtdC4meR0f6SmT5232hwUV6uAKCc0JUNGep6S1hY3Y.jpg", "https://fastly.4sqi.net/img/general/960x720/5268285_wFznnPZAoEPaX4oCE1AyeiqrHimeto2J0grINO_OohM.jpg"],
		"tags": ["Café"],
		"comments": [],
		"_id": "5cf87a3edee96f6431b61c65",
		"name": "Nissh",
		"address": "Plaza de Nuestra Señora del Pilar, 15",
		"cc": "ES",
		"city": "Zaragoza",
		"state": "Aragon",
		"country": "Spain",
		"formatted_address": "Plaza de Nuestra Señora del Pilar, 15, 50001 Zaragoza Aragon, Spain",
		"postal_code": "50001"
	}, {
		"geometry": {
			"type": "Point",
			"coordinates": [-0.8768587517884676, 41.65684901887691]
		},
		"rating": {
			"total_votes": 0,
			"total_values": 0,
			"value": 0
		},
		"description": "Lorem ipsum dolor sit amet consectetur adipiscing elit quisque, cras eros tempor dictumst nostra aptent conubia, a mus habitant libero augue convallis faucibus.",
		"photos": ["https://fastly.4sqi.net/img/general/717x959/15506062_yyf_j5Vdnf4FZRWhjpOkF0DMqSTuv1MkiyIYU2L78Z4.jpg", "https://fastly.4sqi.net/img/general/720x960/5252292_lSZxX0YzXto4gQABchgkl1v_ir2ThRfwOGiNGzHJzKo.jpg"],
		"tags": ["Restaurant"],
		"comments": [],
		"_id": "5cf87a38dee96f6431b61c5e",
		"name": "Club Nautico Zaragoza",
		"cc": "ES",
		"city": "Zaragoza",
		"state": "Aragon",
		"country": "Spain",
		"formatted_address": "Paseo Echegaray y Caballero, 50003 Zaragoza Aragon, Spain",
		"postal_code": "50003"
	}, {
		"geometry": {
			"type": "Point",
			"coordinates": [-0.8772591468338367, 41.655176053073085]
		},
		"rating": {
			"total_votes": 0,
			"total_values": 0,
			"value": 0
		},
		"description": "Lorem ipsum dolor sit amet consectetur adipiscing elit quisque, cras eros tempor dictumst nostra aptent conubia, a mus habitant libero augue convallis faucibus.",
		"photos": ["https://jourtrip-app.s3.amazonaws.com/static/location_placeholder.png"],
		"tags": [],
		"comments": [],
		"_id": "5cf87a65dee96f6431b61c9e",
		"name": "Gusta",
		"address": "C/ Don Jaime 35",
		"cc": "ES",
		"city": "Zaragoza",
		"state": "Aragon",
		"country": "Spain",
		"formatted_address": "C/ Don Jaime 35, Zaragoza Aragon, Spain"
	}, {
		"geometry": {
			"type": "Point",
			"coordinates": [-0.8784461804858714, 41.655740030202814]
		},
		"rating": {
			"total_votes": 0,
			"total_values": 0,
			"value": 0
		},
		"description": "Lorem ipsum dolor sit amet consectetur adipiscing elit quisque, cras eros tempor dictumst nostra aptent conubia, a mus habitant libero augue convallis faucibus.",
		"photos": ["https://fastly.4sqi.net/img/general/720x960/16413425_ep-h5PktEMEUZhQ2NpFKXpN3kgTPralFjsowIaYCL2w.jpg", "https://fastly.4sqi.net/img/general/960x720/12948580_eTWRlvAfdpcFbTBXAERYsNSkIawrkHxd6gV3jaNT7_U.jpg"],
		"tags": ["Café"],
		"comments": [],
		"_id": "5cf87a48dee96f6431b61c73",
		"name": "Café de Lolita",
		"cc": "ES",
		"country": "Spain",
		"formatted_address": "Spain"
	}, {
		"geometry": {
			"type": "Point",
			"coordinates": [-0.8768850890463707, 41.65523742464788]
		},
		"rating": {
			"total_votes": 0,
			"total_values": 0,
			"value": 0
		},
		"description": "Lorem ipsum dolor sit amet consectetur adipiscing elit quisque, cras eros tempor dictumst nostra aptent conubia, a mus habitant libero augue convallis faucibus.",
		"photos": ["https://fastly.4sqi.net/img/general/720x537/41006310_pm6uYVmTyNZRb5XjOXwFJgOif81_ZDqjfqZdrpqBZfI.jpg", "https://fastly.4sqi.net/img/general/959x717/43682988_LS0b-2aIo7WCItt5pcrNZTOSpI7DE61M_Mu0-tifIeU.jpg"],
		"tags": ["Tapas Restaurant"],
		"comments": [],
		"_id": "5cf87a32dee96f6431b61c5a",
		"name": "Restaurante LAS PALOMAS Buffet&Tapas",
		"address": "Pz. de Nuestra Señora del Pilar, 15",
		"cc": "ES",
		"city": "Zaragoza",
		"state": "Aragon",
		"country": "Spain",
		"formatted_address": "Pz. de Nuestra Señora del Pilar, 15 (Esquina c/Don Jaime I), 50.003 Zaragoza Aragon, Spain",
		"postal_code": "50.003"
	}, {
		"geometry": {
			"type": "Point",
			"coordinates": [-0.87739174, 41.655155959999995]
		},
		"rating": {
			"total_votes": 0,
			"total_values": 0,
			"value": 0
		},
		"description": "Lorem ipsum dolor sit amet consectetur adipiscing elit quisque, cras eros tempor dictumst nostra aptent conubia, a mus habitant libero augue convallis faucibus.",
		"photos": ["https://fastly.4sqi.net/img/general/537x720/29320828_l3Himvrv1Mh-UPi2QPIBqyWr6E9IuMLGO-1djifJAWY.jpg"],
		"tags": ["Spanish Restaurant"],
		"comments": [],
		"_id": "5cf87a71dee96f6431b61cad",
		"name": "Dovela",
		"address": "Santiago, 25",
		"cc": "ES",
		"city": "Centro",
		"state": "Aragon",
		"country": "Spain",
		"formatted_address": "Santiago, 25, Centro Aragon, Spain"
	}, {
		"geometry": {
			"type": "Point",
			"coordinates": [-0.877031014291657, 41.65517210502973]
		},
		"rating": {
			"total_votes": 0,
			"total_values": 0,
			"value": 0
		},
		"description": "Lorem ipsum dolor sit amet consectetur adipiscing elit quisque, cras eros tempor dictumst nostra aptent conubia, a mus habitant libero augue convallis faucibus.",
		"photos": ["https://fastly.4sqi.net/img/general/640x640/11951402_YemTQjosEz3mQdrL_Ew-0Qp1IEUx8jmcpELRx8qsEh8.jpg", "https://fastly.4sqi.net/img/general/720x960/16413425_0eie_xPDUJaDhfq0TTyIuvB6wabSxwsIo_W0QVkmMC4.jpg"],
		"tags": ["Bar"],
		"comments": [],
		"_id": "5cf87a4adee96f6431b61c75",
		"name": "Biburga",
		"cc": "ES",
		"country": "Spain",
		"formatted_address": "Spain"
	}, {
		"geometry": {
			"type": "Point",
			"coordinates": [-0.876615, 41.65531]
		},
		"rating": {
			"total_votes": 0,
			"total_values": 0,
			"value": 0
		},
		"description": "Lorem ipsum dolor sit amet consectetur adipiscing elit quisque, cras eros tempor dictumst nostra aptent conubia, a mus habitant libero augue convallis faucibus.",
		"photos": ["https://jourtrip-app.s3.amazonaws.com/static/location_placeholder.png"],
		"tags": ["Food & Drink Shop"],
		"comments": [],
		"_id": "5cf87a6cdee96f6431b61ca9",
		"name": "Nakoa",
		"cc": "ES",
		"country": "Spain",
		"formatted_address": "Spain"
	}, {
		"geometry": {
			"type": "Point",
			"coordinates": [-0.876812, 41.655219]
		},
		"rating": {
			"total_votes": 0,
			"total_values": 0,
			"value": 0
		},
		"description": "Lorem ipsum dolor sit amet consectetur adipiscing elit quisque, cras eros tempor dictumst nostra aptent conubia, a mus habitant libero augue convallis faucibus.",
		"photos": ["https://jourtrip-app.s3.amazonaws.com/static/location_placeholder.png"],
		"tags": ["Coffee Shop"],
		"comments": [],
		"_id": "5cf87a6adee96f6431b61ca6",
		"name": "Hotel Via Romana",
		"cc": "ES",
		"country": "Spain",
		"formatted_address": "Spain"
	}, {
		"geometry": {
			"type": "Point",
			"coordinates": [-0.8765521909439438, 41.65532423401932]
		},
		"rating": {
			"total_votes": 0,
			"total_values": 0,
			"value": 0
		},
		"description": "Lorem ipsum dolor sit amet consectetur adipiscing elit quisque, cras eros tempor dictumst nostra aptent conubia, a mus habitant libero augue convallis faucibus.",
		"photos": ["https://fastly.4sqi.net/img/general/720x540/2kVYEBE6wltRYPcH0bA-U2ZJHsp7e4_HdMiQCG5qEGE.jpg", "https://fastly.4sqi.net/img/general/3840x2160/64414416_WUBgOoz0X7O6a99C-OktHSsKSV6uifyWjT3jXHZMsPg.jpg"],
		"tags": ["Hotel"],
		"comments": [],
		"_id": "5cf87a46dee96f6431b61c70",
		"name": "Hotel Tibur",
		"address": "Plaza de la Seo,  2-3",
		"cc": "ES",
		"city": "Zaragoza",
		"state": "Aragon",
		"country": "Spain",
		"formatted_address": "Plaza de la Seo,  2-3, 50001 Zaragoza Aragon, Spain",
		"postal_code": "50001"
	}, {
		"geometry": {
			"type": "Point",
			"coordinates": [-0.8761278081740155, 41.655788736562926]
		},
		"rating": {
			"total_votes": 0,
			"total_values": 0,
			"value": 0
		},
		"description": "Lorem ipsum dolor sit amet consectetur adipiscing elit quisque, cras eros tempor dictumst nostra aptent conubia, a mus habitant libero augue convallis faucibus.",
		"photos": ["https://fastly.4sqi.net/img/general/720x960/72905069_RlsHyyoxPtbuysJj8aHiKcWO4BE0c20O43CKRIXOrmg.jpg", "https://fastly.4sqi.net/img/general/640x480/5449384_ZKC7MybqiM3Qu4Uh7LHp7t9l-rsq22Ir_lM-ru0rozE.jpg"],
		"tags": ["BBQ Joint"],
		"comments": [],
		"_id": "5cf87a45dee96f6431b61c6e",
		"name": "puesto jamon asado echegaray",
		"address": "Echegaray",
		"cc": "ES",
		"country": "Spain",
		"formatted_address": "Echegaray, Spain"
	}, {
		"geometry": {
			"type": "Point",
			"coordinates": [-0.878502, 41.655663]
		},
		"rating": {
			"total_votes": 0,
			"total_values": 0,
			"value": 0
		},
		"description": "Lorem ipsum dolor sit amet consectetur adipiscing elit quisque, cras eros tempor dictumst nostra aptent conubia, a mus habitant libero augue convallis faucibus.",
		"photos": ["https://jourtrip-app.s3.amazonaws.com/static/location_placeholder.png"],
		"tags": ["Hotel"],
		"comments": [],
		"_id": "5cf87a65dee96f6431b61c9d",
		"name": "Hotel Nastasibasic",
		"address": "Plaza del pilar",
		"cc": "ES",
		"city": "Zaragoza",
		"state": "Aragon",
		"country": "Spain",
		"formatted_address": "Plaza del pilar, Zaragoza Aragon, Spain"
	}, {
		"geometry": {
			"type": "Point",
			"coordinates": [-0.876656, 41.655244]
		},
		"rating": {
			"total_votes": 0,
			"total_values": 0,
			"value": 0
		},
		"description": "Lorem ipsum dolor sit amet consectetur adipiscing elit quisque, cras eros tempor dictumst nostra aptent conubia, a mus habitant libero augue convallis faucibus.",
		"photos": ["https://fastly.4sqi.net/img/general/1440x1440/37652983_genrQ8FmS-W8uWe3MffLl_y5NDtCAPKRomzC_88OGr0.jpg"],
		"tags": ["Gift Shop"],
		"comments": [],
		"_id": "5cf87a5adee96f6431b61c8c",
		"name": "El Maño",
		"cc": "ES",
		"city": "Zaragoza",
		"state": "Aragon",
		"country": "Spain",
		"formatted_address": "50001 Zaragoza Aragon, Spain",
		"postal_code": "50001"
	}, {
		"geometry": {
			"type": "Point",
			"coordinates": [-0.877532958984375, 41.65508636729864]
		},
		"rating": {
			"total_votes": 0,
			"total_values": 0,
			"value": 0
		},
		"description": "Lorem ipsum dolor sit amet consectetur adipiscing elit quisque, cras eros tempor dictumst nostra aptent conubia, a mus habitant libero augue convallis faucibus.",
		"photos": ["https://jourtrip-app.s3.amazonaws.com/static/location_placeholder.png"],
		"tags": ["Office"],
		"comments": [],
		"_id": "5cf87a5adee96f6431b61c8d",
		"name": "Asesoria Ligorred",
		"cc": "ES",
		"country": "Spain",
		"formatted_address": "Spain"
	}, {
		"geometry": {
			"type": "Point",
			"coordinates": [-0.878605842590332, 41.65577575258973]
		},
		"rating": {
			"total_votes": 0,
			"total_values": 0,
			"value": 0
		},
		"description": "Lorem ipsum dolor sit amet consectetur adipiscing elit quisque, cras eros tempor dictumst nostra aptent conubia, a mus habitant libero augue convallis faucibus.",
		"photos": ["https://fastly.4sqi.net/img/general/640x640/64907360_EsE8Ru_eZ6fdHyg5lvc5kp8S55rEaWP6T_B-weYWpgk.jpg", "https://fastly.4sqi.net/img/general/3888x2592/25254398_yph1V09A-XQVf9Ws1KdKmApKOmlFVQELfhxe33J5GMo.jpg"],
		"tags": ["General Entertainment"],
		"comments": [],
		"_id": "5cf87a69dee96f6431b61ca4",
		"name": "Walking Tour",
		"address": "Plaza del Pilar (Oficina de Turismo)",
		"cc": "ES",
		"city": "Zaragoza",
		"state": "Aragon",
		"country": "Spain",
		"formatted_address": "Plaza del Pilar (Oficina de Turismo), 50003 Zaragoza Aragon, Spain",
		"postal_code": "50003"
	}, {
		"geometry": {
			"type": "Point",
			"coordinates": [-0.8769378993347802, 41.65510631795925]
		},
		"rating": {
			"total_votes": 0,
			"total_values": 0,
			"value": 0
		},
		"description": "Lorem ipsum dolor sit amet consectetur adipiscing elit quisque, cras eros tempor dictumst nostra aptent conubia, a mus habitant libero augue convallis faucibus.",
		"photos": ["https://fastly.4sqi.net/img/general/960x540/66794018_biDz-nLwMG8_XNpwJl0_0s987juZfDfrO7Yw0l_6g7g.jpg", "https://fastly.4sqi.net/img/general/612x612/8627608_ZNeIzIUIlwt1dt5tE-VhUbLFKMi5SuyG7r85Ehh6lns.jpg"],
		"tags": ["Spanish Restaurant"],
		"comments": [],
		"_id": "5cf87a69dee96f6431b61ca5",
		"name": "Taberna El Ruedo",
		"address": "Don Jaime I, 54",
		"cc": "ES",
		"country": "Spain",
		"formatted_address": "Don Jaime I, 54, Spain"
	}, {
		"geometry": {
			"type": "Point",
			"coordinates": [-0.8765095732694128, 41.65526938233618]
		},
		"rating": {
			"total_votes": 0,
			"total_values": 0,
			"value": 0
		},
		"description": "Lorem ipsum dolor sit amet consectetur adipiscing elit quisque, cras eros tempor dictumst nostra aptent conubia, a mus habitant libero augue convallis faucibus.",
		"photos": ["https://fastly.4sqi.net/img/general/540x720/20074391_IQlkiuyJGeFNPIix9NaWdN-OqCFZgsdRLO5yfKsq8kc.jpg", "https://fastly.4sqi.net/img/general/540x720/b8WNysdCGrpkwoedPBJXx76L0FS8ENEeqbZ_L4IPyhM.jpg"],
		"tags": ["Snack Place"],
		"comments": [],
		"_id": "5cf87a55dee96f6431b61c85",
		"name": "Bar Trevi",
		"cc": "ES",
		"city": "Zaragoza",
		"state": "Aragon",
		"country": "Spain",
		"formatted_address": "Zaragoza Aragon, Spain"
	}, {
		"geometry": {
			"type": "Point",
			"coordinates": [-0.878675, 41.655861]
		},
		"rating": {
			"total_votes": 0,
			"total_values": 0,
			"value": 0
		},
		"description": "Lorem ipsum dolor sit amet consectetur adipiscing elit quisque, cras eros tempor dictumst nostra aptent conubia, a mus habitant libero augue convallis faucibus.",
		"photos": ["https://fastly.4sqi.net/img/general/1616x1080/387013_dRX-bJbXQOFj0jXeOJldxFbpjUKlMJ1cL0uMmypHx2I.jpg", "https://fastly.4sqi.net/img/general/1440x1920/5941181_TZP10NvZ0bt0MF6yfInAdh3qqE-1HS_b2eiSclXMqvw.jpg"],
		"tags": ["Hotel"],
		"comments": [],
		"_id": "5cf87a4adee96f6431b61c76",
		"name": "Hotel Pilar Plaza",
		"cc": "ES",
		"country": "Spain",
		"formatted_address": "Spain"
	}, {
		"geometry": {
			"type": "Point",
			"coordinates": [-0.875968, 41.656118]
		},
		"rating": {
			"total_votes": 0,
			"total_values": 0,
			"value": 0
		},
		"description": "Lorem ipsum dolor sit amet consectetur adipiscing elit quisque, cras eros tempor dictumst nostra aptent conubia, a mus habitant libero augue convallis faucibus.",
		"photos": ["https://jourtrip-app.s3.amazonaws.com/static/location_placeholder.png"],
		"tags": ["Video Game Store"],
		"comments": [],
		"_id": "5cf87a73dee96f6431b61cb0",
		"name": "Game Augusta",
		"address": "Centro Comercial Augusta",
		"cc": "ES",
		"city": "Zaragoza",
		"state": "Aragon",
		"country": "Spain",
		"formatted_address": "Centro Comercial Augusta, Zaragoza Aragon, Spain"
	}, {
		"geometry": {
			"type": "Point",
			"coordinates": [-0.875958, 41.656106]
		},
		"rating": {
			"total_votes": 0,
			"total_values": 0,
			"value": 0
		},
		"description": "Lorem ipsum dolor sit amet consectetur adipiscing elit quisque, cras eros tempor dictumst nostra aptent conubia, a mus habitant libero augue convallis faucibus.",
		"photos": ["https://jourtrip-app.s3.amazonaws.com/static/location_placeholder.png"],
		"tags": ["Pub"],
		"comments": [],
		"_id": "5cf87a62dee96f6431b61c98",
		"name": "The University of beer",
		"address": "Arzobizpo Apaolaza, 8",
		"cc": "ES",
		"city": "Zaragoza",
		"state": "Aragon",
		"country": "Spain",
		"formatted_address": "Arzobizpo Apaolaza, 8, Zaragoza Aragon, Spain"
	}, {
		"geometry": {
			"type": "Point",
			"coordinates": [-0.875956, 41.656112]
		},
		"rating": {
			"total_votes": 0,
			"total_values": 0,
			"value": 0
		},
		"description": "Lorem ipsum dolor sit amet consectetur adipiscing elit quisque, cras eros tempor dictumst nostra aptent conubia, a mus habitant libero augue convallis faucibus.",
		"photos": ["https://jourtrip-app.s3.amazonaws.com/static/location_placeholder.png"],
		"tags": ["Hotel"],
		"comments": [],
		"_id": "5cf87a43dee96f6431b61c6c",
		"name": "hotel trip zaragoza",
		"address": "zona expo",
		"cc": "ES",
		"city": "Zaragoza",
		"state": "Aragon",
		"country": "Spain",
		"formatted_address": "zona expo, Zaragoza Aragon, Spain"
	}, {
		"geometry": {
			"type": "Point",
			"coordinates": [-0.875953, 41.65611]
		},
		"rating": {
			"total_votes": 0,
			"total_values": 0,
			"value": 0
		},
		"description": "Lorem ipsum dolor sit amet consectetur adipiscing elit quisque, cras eros tempor dictumst nostra aptent conubia, a mus habitant libero augue convallis faucibus.",
		"photos": ["https://jourtrip-app.s3.amazonaws.com/static/location_placeholder.png"],
		"tags": [],
		"comments": [],
		"_id": "5cf87a52dee96f6431b61c80",
		"name": "Calle Inglaterra 44-46 Principal Izquierda",
		"address": "Mi PaLaciO",
		"cc": "ES",
		"city": "Zaragoza",
		"state": "Aragon",
		"country": "Spain",
		"formatted_address": "Mi PaLaciO, Zaragoza Aragon, Spain"
	}, {
		"geometry": {
			"type": "Point",
			"coordinates": [-0.87595, 41.656107]
		},
		"rating": {
			"total_votes": 0,
			"total_values": 0,
			"value": 0
		},
		"description": "Lorem ipsum dolor sit amet consectetur adipiscing elit quisque, cras eros tempor dictumst nostra aptent conubia, a mus habitant libero augue convallis faucibus.",
		"photos": ["https://jourtrip-app.s3.amazonaws.com/static/location_placeholder.png"],
		"tags": ["Sporting Goods Shop"],
		"comments": [],
		"_id": "5cf87a7adee96f6431b61cb7",
		"name": "Coronel Tapiocca",
		"address": "Centro Comercial Augusta",
		"cc": "ES",
		"city": "Zaragoza",
		"state": "Aragon",
		"country": "Spain",
		"formatted_address": "Centro Comercial Augusta, Zaragoza Aragon, Spain"
	}, {
		"geometry": {
			"type": "Point",
			"coordinates": [-0.87595, 41.656108]
		},
		"rating": {
			"total_votes": 0,
			"total_values": 0,
			"value": 0
		},
		"description": "Lorem ipsum dolor sit amet consectetur adipiscing elit quisque, cras eros tempor dictumst nostra aptent conubia, a mus habitant libero augue convallis faucibus.",
		"photos": ["https://jourtrip-app.s3.amazonaws.com/static/location_placeholder.png"],
		"tags": ["Snack Place"],
		"comments": [],
		"_id": "5cf87a5fdee96f6431b61c93",
		"name": "Martin Martin",
		"address": "Montecanal",
		"cc": "ES",
		"city": "Zaragoza",
		"state": "Aragon",
		"country": "Spain",
		"formatted_address": "Montecanal, Zaragoza Aragon, Spain"
	}, {
		"geometry": {
			"type": "Point",
			"coordinates": [-0.87595, 41.656108]
		},
		"rating": {
			"total_votes": 0,
			"total_values": 0,
			"value": 0
		},
		"description": "Lorem ipsum dolor sit amet consectetur adipiscing elit quisque, cras eros tempor dictumst nostra aptent conubia, a mus habitant libero augue convallis faucibus.",
		"photos": ["https://jourtrip-app.s3.amazonaws.com/static/location_placeholder.png"],
		"tags": ["Automotive Shop"],
		"comments": [],
		"_id": "5cf87a6bdee96f6431b61ca8",
		"name": "Sartopina",
		"address": "Z-30 Tercer Cinturón",
		"cc": "ES",
		"city": "Zaragoza",
		"state": "Aragon",
		"country": "Spain",
		"formatted_address": "Z-30 Tercer Cinturón, Zaragoza Aragon, Spain"
	}, {
		"geometry": {
			"type": "Point",
			"coordinates": [-0.87595, 41.656108]
		},
		"rating": {
			"total_votes": 0,
			"total_values": 0,
			"value": 0
		},
		"description": "Lorem ipsum dolor sit amet consectetur adipiscing elit quisque, cras eros tempor dictumst nostra aptent conubia, a mus habitant libero augue convallis faucibus.",
		"photos": ["https://jourtrip-app.s3.amazonaws.com/static/location_placeholder.png"],
		"tags": ["Tapas Restaurant"],
		"comments": [],
		"_id": "5cf87a56dee96f6431b61c87",
		"name": "El Ruedo Taberna, Zaragoza",
		"cc": "ES",
		"country": "Spain",
		"formatted_address": "Spain"
	}, {
		"geometry": {
			"type": "Point",
			"coordinates": [-0.875943, 41.656106]
		},
		"rating": {
			"total_votes": 0,
			"total_values": 0,
			"value": 0
		},
		"description": "Lorem ipsum dolor sit amet consectetur adipiscing elit quisque, cras eros tempor dictumst nostra aptent conubia, a mus habitant libero augue convallis faucibus.",
		"photos": ["https://jourtrip-app.s3.amazonaws.com/static/location_placeholder.png"],
		"tags": [],
		"comments": [],
		"_id": "5cf87a72dee96f6431b61caf",
		"name": "Bocatta - Agusta",
		"address": "Avda Navarra (Centro Comercial Augusta)",
		"cc": "ES",
		"city": "Zaragoza",
		"state": "Aragon",
		"country": "Spain",
		"formatted_address": "Avda Navarra (Centro Comercial Augusta), Zaragoza Aragon, Spain"
	}, {
		"geometry": {
			"type": "Point",
			"coordinates": [-0.878250839846618, 41.6552658767799]
		},
		"rating": {
			"total_votes": 0,
			"total_values": 0,
			"value": 0
		},
		"description": "Lorem ipsum dolor sit amet consectetur adipiscing elit quisque, cras eros tempor dictumst nostra aptent conubia, a mus habitant libero augue convallis faucibus.",
		"photos": ["https://jourtrip-app.s3.amazonaws.com/static/location_placeholder.png"],
		"tags": ["Ice Cream Shop"],
		"comments": [],
		"_id": "5cf87a44dee96f6431b61c6d",
		"name": "Heladería Aldo",
		"cc": "ES",
		"country": "Spain",
		"formatted_address": "Spain"
	}, {
		"geometry": {
			"type": "Point",
			"coordinates": [-0.8759462382232761, 41.65617572816858]
		},
		"rating": {
			"total_votes": 0,
			"total_values": 0,
			"value": 0
		},
		"description": "Lorem ipsum dolor sit amet consectetur adipiscing elit quisque, cras eros tempor dictumst nostra aptent conubia, a mus habitant libero augue convallis faucibus.",
		"photos": ["https://fastly.4sqi.net/img/general/1920x1440/20150434_uPtKTuaxB3AKxi5GSJmpQqFfZQ52slE19Z4Fn-T4aO8.jpg", "https://fastly.4sqi.net/img/general/640x640/6787460_vgVVQpk5-Ry_T5Bg8vB1V7wAZha5ksGn9OWJD0PJ6uA.jpg"],
		"tags": ["Other Great Outdoors"],
		"comments": [],
		"_id": "5cf87a49dee96f6431b61c74",
		"name": "Paseo Echegaray y Caballero",
		"address": "Echegaray y Caballero",
		"cc": "ES",
		"city": "Zaragoza",
		"state": "Aragon",
		"country": "Spain",
		"formatted_address": "Echegaray y Caballero, Zaragoza Aragon, Spain"
	}, {
		"geometry": {
			"type": "Point",
			"coordinates": [-0.8787257436241354, 41.6562280911404]
		},
		"rating": {
			"total_votes": 0,
			"total_values": 0,
			"value": 0
		},
		"description": "Lorem ipsum dolor sit amet consectetur adipiscing elit quisque, cras eros tempor dictumst nostra aptent conubia, a mus habitant libero augue convallis faucibus.",
		"photos": ["https://jourtrip-app.s3.amazonaws.com/static/location_placeholder.png"],
		"tags": ["Bar"],
		"comments": [],
		"_id": "5cf87a4edee96f6431b61c7a",
		"name": "Dolce Club Café",
		"cc": "ES",
		"country": "Spain",
		"formatted_address": "Spain"
	}, {
		"geometry": {
			"type": "Point",
			"coordinates": [-0.875927, 41.656097]
		},
		"rating": {
			"total_votes": 0,
			"total_values": 0,
			"value": 0
		},
		"description": "Lorem ipsum dolor sit amet consectetur adipiscing elit quisque, cras eros tempor dictumst nostra aptent conubia, a mus habitant libero augue convallis faucibus.",
		"photos": ["https://jourtrip-app.s3.amazonaws.com/static/location_placeholder.png"],
		"tags": ["Office"],
		"comments": [],
		"_id": "5cf87a65dee96f6431b61c9f",
		"name": "pragmatic service factory",
		"address": "C/ Cuatrod e Agosto nº 18, 2ª planta Oficina 1ª",
		"cc": "ES",
		"city": "Zaragoza",
		"state": "Aragon",
		"country": "Spain",
		"formatted_address": "C/ Cuatrod e Agosto nº 18, 2ª planta Oficina 1ª, Zaragoza Aragon, Spain"
	}, {
		"geometry": {
			"type": "Point",
			"coordinates": [-0.8787769591516456, 41.65618129566719]
		},
		"rating": {
			"total_votes": 0,
			"total_values": 0,
			"value": 0
		},
		"description": "Lorem ipsum dolor sit amet consectetur adipiscing elit quisque, cras eros tempor dictumst nostra aptent conubia, a mus habitant libero augue convallis faucibus.",
		"photos": ["https://fastly.4sqi.net/img/general/720x960/25144388_mgSWhftofT27utGqXFAJspvxpobjyO51Mq9j7oCXYoo.jpg", "https://fastly.4sqi.net/img/general/717x959/35786311_JvCmkAPVtKZxIpYpspgaNHDnLop_QKypGo58iyppsco.jpg"],
		"tags": ["Café"],
		"comments": [],
		"_id": "5cf87a50dee96f6431b61c7d",
		"name": "Cafetería Dino",
		"address": "Plaza de Nuestra Señora del Pilar, 10",
		"cc": "ES",
		"city": "Zaragoza",
		"state": "Aragon",
		"country": "Spain",
		"formatted_address": "Plaza de Nuestra Señora del Pilar, 10, 50003 Zaragoza Aragon, Spain",
		"postal_code": "50003"
	}, {
		"geometry": {
			"type": "Point",
			"coordinates": [-0.877374, 41.654969]
		},
		"rating": {
			"total_votes": 0,
			"total_values": 0,
			"value": 0
		},
		"description": "Lorem ipsum dolor sit amet consectetur adipiscing elit quisque, cras eros tempor dictumst nostra aptent conubia, a mus habitant libero augue convallis faucibus.",
		"photos": ["https://fastly.4sqi.net/img/general/1920x1440/14189284_rU3o4ATduVHHDIkxwp9M9L-TB4AImvzktaAFhTQzwk8.jpg", "https://fastly.4sqi.net/img/general/960x540/33091100_cE0V2m7gji6_OsXCRnQZdH5W9pdGdTUzwb3VW-Odx5s.jpg"],
		"tags": ["Turkish Restaurant"],
		"comments": [],
		"_id": "5cf87a70dee96f6431b61cac",
		"name": "Anadolu Ateşi",
		"cc": "ES",
		"city": "Zaragoza",
		"state": "Aragon",
		"country": "Spain",
		"formatted_address": "Zaragoza Aragon, Spain"
	}, {
		"geometry": {
			"type": "Point",
			"coordinates": [-0.878808, 41.655984]
		},
		"rating": {
			"total_votes": 0,
			"total_values": 0,
			"value": 0
		},
		"description": "Lorem ipsum dolor sit amet consectetur adipiscing elit quisque, cras eros tempor dictumst nostra aptent conubia, a mus habitant libero augue convallis faucibus.",
		"photos": ["https://fastly.4sqi.net/img/general/959x717/18398237_csv0NeHPPl5llkAxaCESouEaQeSgoISBHWuEEYJb-es.jpg"],
		"tags": ["Other Nightlife"],
		"comments": [],
		"_id": "5cf87a66dee96f6431b61ca0",
		"name": "Vinilo Argensola",
		"address": "Hermanos Argensola, 2",
		"cc": "ES",
		"city": "Zaragoza",
		"state": "Aragon",
		"country": "Spain",
		"formatted_address": "Hermanos Argensola, 2, Zaragoza Aragon, Spain"
	}, {
		"geometry": {
			"type": "Point",
			"coordinates": [-0.8788106204459314, 41.656163648768256]
		},
		"rating": {
			"total_votes": 0,
			"total_values": 0,
			"value": 0
		},
		"description": "Lorem ipsum dolor sit amet consectetur adipiscing elit quisque, cras eros tempor dictumst nostra aptent conubia, a mus habitant libero augue convallis faucibus.",
		"photos": ["https://fastly.4sqi.net/img/general/717x959/44035424_ZiArTDghnJ78gnlLQBsoU5J7s-QuFHkXer_B0Ils4gM.jpg", "https://fastly.4sqi.net/img/general/720x431/PJYBJr1H8DEOEBA8AQ_pU20qlhCHUH50gd55R45qqYQ.jpg"],
		"tags": ["Ice Cream Shop"],
		"comments": [],
		"_id": "5cf87a41dee96f6431b61c6a",
		"name": "Gelati Dino",
		"cc": "ES",
		"country": "Spain",
		"formatted_address": "Spain"
	}, {
		"geometry": {
			"type": "Point",
			"coordinates": [-0.8768082463858959, 41.657099099351974]
		},
		"rating": {
			"total_votes": 0,
			"total_values": 0,
			"value": 0
		},
		"description": "Lorem ipsum dolor sit amet consectetur adipiscing elit quisque, cras eros tempor dictumst nostra aptent conubia, a mus habitant libero augue convallis faucibus.",
		"photos": ["https://fastly.4sqi.net/img/general/717x959/15506062_qj6CunY5LXC1iZ4j0AaAeLn7a_WgeMx1B0C7OheLUgw.jpg", "https://fastly.4sqi.net/img/general/959x717/41828488_ce-mlhvPl8keQ2uHpDAJZkPfq5_5Uo7R--46PDZJMeY.jpg"],
		"tags": ["Jazz Club"],
		"comments": [],
		"_id": "5cf87a3fdee96f6431b61c67",
		"name": "Nautico Zaragoza",
		"address": "Paseo de Echegaray y Caballero",
		"cc": "ES",
		"city": "Zaragoza",
		"state": "Aragon",
		"country": "Spain",
		"formatted_address": "Paseo de Echegaray y Caballero, 50003 Zaragoza Aragon, Spain",
		"postal_code": "50003"
	}, {
		"geometry": {
			"type": "Point",
			"coordinates": [-0.8761743647017648, 41.655350907578445]
		},
		"rating": {
			"total_votes": 0,
			"total_values": 0,
			"value": 0
		},
		"description": "Lorem ipsum dolor sit amet consectetur adipiscing elit quisque, cras eros tempor dictumst nostra aptent conubia, a mus habitant libero augue convallis faucibus.",
		"photos": ["https://fastly.4sqi.net/img/general/612x612/17837204_NBX_0tZlvumESuD4pgLKolxosxXzo8kLBIqnwhzS9-I.jpg", "https://fastly.4sqi.net/img/general/540x720/igQAEaJ8_EOpge8z_vJqX0mQrUbmWvOSv8HyDqJdJ18.jpg"],
		"tags": ["Church"],
		"comments": [],
		"_id": "5cf87a33dee96f6431b61c5c",
		"name": "Catedral del Salvador (La Seo)",
		"address": "Plaza de La Seo 2",
		"cc": "ES",
		"city": "Zaragoza",
		"state": "Aragon",
		"country": "Spain",
		"formatted_address": "Plaza de La Seo 2, 50001 Zaragoza Aragon, Spain",
		"postal_code": "50001"
	}, {
		"geometry": {
			"type": "Point",
			"coordinates": [-0.878827, 41.656233]
		},
		"rating": {
			"total_votes": 0,
			"total_values": 0,
			"value": 0
		},
		"description": "Lorem ipsum dolor sit amet consectetur adipiscing elit quisque, cras eros tempor dictumst nostra aptent conubia, a mus habitant libero augue convallis faucibus.",
		"photos": ["https://jourtrip-app.s3.amazonaws.com/static/location_placeholder.png"],
		"tags": ["Theme Park"],
		"comments": [],
		"_id": "5cf87a68dee96f6431b61ca3",
		"name": "Hiper Del Rezo",
		"cc": "ES",
		"country": "Spain",
		"formatted_address": "Spain"
	}, {
		"geometry": {
			"type": "Point",
			"coordinates": [-0.876079, 41.655433]
		},
		"rating": {
			"total_votes": 0,
			"total_values": 0,
			"value": 0
		},
		"description": "Lorem ipsum dolor sit amet consectetur adipiscing elit quisque, cras eros tempor dictumst nostra aptent conubia, a mus habitant libero augue convallis faucibus.",
		"photos": ["https://jourtrip-app.s3.amazonaws.com/static/location_placeholder.png"],
		"tags": ["Insurance Office"],
		"comments": [],
		"_id": "5cf87a68dee96f6431b61ca2",
		"name": "Plus Ultra Seguros",
		"address": "Plaza La Seo, 16",
		"cc": "ES",
		"city": "Tarazona",
		"state": "Aragon",
		"country": "Spain",
		"formatted_address": "Plaza La Seo, 16, 50500 Tarazona Aragon, Spain",
		"postal_code": "50500"
	}, {
		"geometry": {
			"type": "Point",
			"coordinates": [-0.8788418769836426, 41.656224650673025]
		},
		"rating": {
			"total_votes": 0,
			"total_values": 0,
			"value": 0
		},
		"description": "Lorem ipsum dolor sit amet consectetur adipiscing elit quisque, cras eros tempor dictumst nostra aptent conubia, a mus habitant libero augue convallis faucibus.",
		"photos": ["https://fastly.4sqi.net/img/general/612x612/6476696_BGUOsJ_0rVJkDJp97HX_tV9BOlu1eQTctJlrr_TK07k.jpg", "https://fastly.4sqi.net/img/general/540x960/26860186_VUlum5txL1zfxORdFX3aGcIY7egS_MlKzRJS1gqfIpU.jpg"],
		"tags": ["Plaza"],
		"comments": [],
		"_id": "5cf87a30dee96f6431b61c57",
		"name": "Plaza del Pilar",
		"address": "Plaza de Nuestra Señora del Pilar",
		"cc": "ES",
		"city": "Zaragoza",
		"state": "Aragon",
		"country": "Spain",
		"formatted_address": "Plaza de Nuestra Señora del Pilar, 50003 Zaragoza Aragon, Spain",
		"postal_code": "50003"
	}, {
		"geometry": {
			"type": "Point",
			"coordinates": [-0.877429, 41.654917]
		},
		"rating": {
			"total_votes": 0,
			"total_values": 0,
			"value": 0
		},
		"description": "Lorem ipsum dolor sit amet consectetur adipiscing elit quisque, cras eros tempor dictumst nostra aptent conubia, a mus habitant libero augue convallis faucibus.",
		"photos": ["https://jourtrip-app.s3.amazonaws.com/static/location_placeholder.png"],
		"tags": ["Thai Restaurant"],
		"comments": [],
		"_id": "5cf87a40dee96f6431b61c68",
		"name": "Sawadika",
		"address": "Santiago 26",
		"cc": "ES",
		"city": "Zaragoza",
		"state": "Aragon",
		"country": "Spain",
		"formatted_address": "Santiago 26, 50003 Zaragoza Aragon, Spain",
		"postal_code": "50003"
	}, {
		"geometry": {
			"type": "Point",
			"coordinates": [-0.8774, 41.654912]
		},
		"rating": {
			"total_votes": 0,
			"total_values": 0,
			"value": 0
		},
		"description": "Lorem ipsum dolor sit amet consectetur adipiscing elit quisque, cras eros tempor dictumst nostra aptent conubia, a mus habitant libero augue convallis faucibus.",
		"photos": ["https://fastly.4sqi.net/img/general/540x960/118032986_5a59YKXgm7rhszMdKSDw6t2FX7vNvSOmSHeWAwhXRc0.jpg", "https://fastly.4sqi.net/img/general/1440x1920/84664562_E4xieP24yOL11gHXGzTurc_wg2yslnuWtu9GQvBzIbI.jpg"],
		"tags": ["Kebab Restaurant"],
		"comments": [],
		"_id": "5cf87a74dee96f6431b61cb2",
		"name": "Anadolu ateşi",
		"address": "Calle Santiago",
		"cc": "ES",
		"city": "Zaragoza",
		"state": "Aragon",
		"country": "Spain",
		"formatted_address": "Calle Santiago, 50003 Zaragoza Aragon, Spain",
		"postal_code": "50003"
	}, {
		"geometry": {
			"type": "Point",
			"coordinates": [-0.877424, 41.654909]
		},
		"rating": {
			"total_votes": 0,
			"total_values": 0,
			"value": 0
		},
		"description": "Lorem ipsum dolor sit amet consectetur adipiscing elit quisque, cras eros tempor dictumst nostra aptent conubia, a mus habitant libero augue convallis faucibus.",
		"photos": ["https://jourtrip-app.s3.amazonaws.com/static/location_placeholder.png"],
		"tags": ["Beer Bar"],
		"comments": [],
		"_id": "5cf87a57dee96f6431b61c89",
		"name": "Morgan Bar",
		"cc": "ES",
		"country": "Spain",
		"formatted_address": "Spain"
	}, {
		"geometry": {
			"type": "Point",
			"coordinates": [-0.8763721641710377, 41.65514746314341]
		},
		"rating": {
			"total_votes": 0,
			"total_values": 0,
			"value": 0
		},
		"description": "Lorem ipsum dolor sit amet consectetur adipiscing elit quisque, cras eros tempor dictumst nostra aptent conubia, a mus habitant libero augue convallis faucibus.",
		"photos": ["https://fastly.4sqi.net/img/general/720x540/M5PJNAZN5Y4RBSZH1F243TANACJQ5AT1HMGXDAQ2GPHJG3D5.jpg", "https://fastly.4sqi.net/img/general/720x540/fXbfgYspMIP3CUBokZ71spS0tUSFOrlxFiBANt4KBdg.jpg"],
		"tags": ["History Museum"],
		"comments": [],
		"_id": "5cf87a33dee96f6431b61c5b",
		"name": "Museo Foro Caesaraugusta",
		"address": "Plaza de la Seo, 1-3",
		"cc": "ES",
		"city": "Zaragoza",
		"state": "Aragon",
		"country": "Spain",
		"formatted_address": "Plaza de la Seo, 1-3, 50001 Zaragoza Aragon, Spain",
		"postal_code": "50001"
	}, {
		"geometry": {
			"type": "Point",
			"coordinates": [-0.8784417318773814, 41.65470203684864]
		},
		"rating": {
			"total_votes": 0,
			"total_values": 0,
			"value": 0
		},
		"description": "Lorem ipsum dolor sit amet consectetur adipiscing elit quisque, cras eros tempor dictumst nostra aptent conubia, a mus habitant libero augue convallis faucibus.",
		"photos": ["https://fastly.4sqi.net/img/general/720x406/WZoICE-OwxM2Qe9PHAtTcDCsgAs2iJVcFFJYNQaCqjM.jpg", "https://fastly.4sqi.net/img/general/406x720/YjvkDBhL5B6tFZahwbtGEVJokCkC2xJAUFdiO6qqaN4.jpg"],
		"tags": ["Art Gallery"],
		"comments": [],
		"_id": "5cf87a5edee96f6431b61c91",
		"name": "Museo Ibercaja",
		"cc": "ES",
		"country": "Spain",
		"formatted_address": "Spain"
	}]
}